[
        {
            "NO": "001",
            "Name": "老酒麵線",
            "Category": "馬祖",
            "Island": "北竿",
            "Shop": "芹壁鏡沃小吃部",
            "Description": "位於芹壁聚落附近的北竿人氣小吃店，為一對老夫婦共同經營，據說是馬祖非常道地、同時也被許多人評為馬祖第一名的老酒麵線，麵線極細順口，酒香四溢的湯頭、用老酒麻油煎出來的荷包蛋、紅糟過的肉絲，以上獨特的亮點都替這一碗加分不少。等待時間較久，記得多預留時間哦。",
            "Address": "連江縣北竿鄉芹壁村75號",
            "Tel": "08-365-5558",
            "Hours": "週一至週日 10：00-13：30，16：00-18：30",
            "Figure": "fig/ISL-5103-MatsuFood-01.jpg",
            "Link": "https://www.facebook.com/pages/category/Food-Stand/%E8%8A%B9%E5%A3%81%E9%8F%A1%E6%B2%83%E5%B0%8F%E5%90%83%E9%83%A8-743696212341901/"
        },
        {
            "NO": "002",
            "Name": "繼光餅",
            "Category": "馬祖",
            "Island": "南竿",
            "Shop": "超群繼光餅",
            "Description": "繼光餅又稱馬祖漢堡。由來自明朝將軍戚繼光，在快速掃蕩追擊倭寇時，為了縮短用餐時間和方便攜帶所發明的簡易乾糧。剛炸起鍋的繼光餅，撒上滿滿芝麻的甜甜圈外型，對切後再夾豬排和蔥花蛋，口味綜合了鹹甜香，整體咬下外酥內軟且芝麻香滿溢，不乾柴又有嚼勁，是馬祖當地的特色小吃之一。",
            "Address": "連江縣南竿鄉馬祖村93號",
            "Tel": "08-362-5655",
            "Hours": "週一至週日 07：00-18：00",
            "Figure": "fig/ISL-5103-MatsuFood-02.jpg",
            "Link": "https://www.facebook.com/ChaoQunJiGuangBing"
        },
        {
            "NO": "003",
            "Name": "鼎邊糊",
            "Category": "馬祖",
            "Island": "南竿",
            "Shop": "阿妹的店鼎邊糊",
            "Description": "位於馬祖南竿的介壽獅子市場2樓，是當地人也會吃的早餐好選擇。推薦許多人慕名而來的燕餃湯和海鮮鼎邊糊，燕餃皮薄Q彈味美且湯頭清香。鼎邊糊與鼎邊銼不同，前者有加米飯較滑順，海鮮配料有蛤蜊和魚丸魚塊，吃得出其中的鮮甜味！",
            "Address": "連江縣南竿鄉介壽村獅子市場內",
            "Tel": "08-362-6375",
            "Hours": "週一至週五 05：30-賣完為止",
            "Figure": "fig/ISL-5103-MatsuFood-03.jpg",
            "Link": "https://ryokousharoody.blogspot.com/2020/07/blog-post_21.html"
        },
        {
            "NO": "004",
            "Name": "虫弟餅",
            "Category": "馬祖",
            "Island": "南竿",
            "Shop": "阿婆（虫弟）餅 蠣餅",
            "Description": "隱身於馬祖仁愛市場內的阿婆虫弟餅（蠣餅），是福州傳統小吃，型似蚵嗲的外皮炸得酥脆卻不油膩，飽滿的內餡有豬肉、高麗菜、蛋和米粉，是每到下午嘴饞時的絕佳選擇。販賣品項只有虫弟餅和紅糟雞串，紅糟雞肉外層有著紅糟獨特的鹹甜風味，口感厚實且不乾柴，也同樣推薦！",
            "Address": "連江縣南竿鄉仁愛村15號",
            "Tel": "0919-213-923",
            "Hours": "週一至週日 14：00-18：00",
            "Figure": "fig/ISL-5103-MatsuFood-04.jpg",
            "Link": "https://www.facebook.com/pages/category/Food-Stand/%E9%98%BF%E5%A9%86%E8%99%AB%E5%BC%9F%E9%A3%9F%E5%B9%B6-163919963796083/"
        },
        {
            "NO": "005",
            "Name": "淡菜",
            "Category": "馬祖",
            "Island": "南竿",
            "Shop": "津沙小館",
            "Description": "來到馬祖，怎麼能不吃海鮮？必吃的就是貝肉肥美、鮮甜又營養的「淡菜」！盛產季節是每年的6~12 月，也就是說在這個時期品嚐就是它最美味的時候了。這裡告訴大家一個小知識，淡菜有雄雌之分，黃色是母的、白色則是公的，聽說黃色的比較好吃！",
            "Address": "連江縣南竿鄉津沙村61號",
            "Tel": "0911-761-505",
            "Hours": "11:00~21:00",
            "Figure": "fig/ISL-5103-MatsuFood-05.jpg",
            "Link": "https://www.facebook.com/jinsha.restaurant/"
        },
        {
            "NO": "006",
            "Name": "紅糟料理",
            "Category": "馬祖",
            "Island": "南竿",
            "Shop": "九榕閣",
            "Description": "擁有老酒釀造傳統，紅糟當然也就深入了當地的飲食文化之中。代表性的菜餚有紅糟肉、紅糟鰻、紅糟雞、紅糟炒飯等，紅糟不但能增添料理的香氣，對肉類也有風味提升的效果，更有改善血糖的功效，可以說是健康又美味的調味品。",
            "Address": "連江縣南竿鄉41號",
            "Tel": "08-362-2888",
            "Hours": "10:00~14:00, 16:00~21:00",
            "Figure": "fig/ISL-5103-MatsuFood-06.jpg",
            "Link": "https://www.paine0602.com/jiurongge/"
        }
    ]