[
        {
            "NO": "01",
            "Name": "翟山坑道",
            "Category": "金門",
            "Island": "金城鎮",
            "Tour": "0.5-1小時",
            "Description": "翟山坑道內，既長而寬闊的坑道及水道兩區域，是八二三砲戰期間，動員無數人力、耗費五年時間，才辛苦鑿出這條能夠容納42艘水道小艇進出、迴轉的極大的工程，又被譽為「地下金門」傑作之一。",
            "Address": "金門縣金城鎮古崗湖東南方翟山腹 ",
            "Tel": "+886-82-313241",
            "Hours": "08:30 - 17:00",
            "Figure": "fig/ISL-3211-Kinmen-01.jpg",
            "Link": "https://kinmen.travel/zh-tw/travel/attraction/1337"
        },
        {
            "NO": "02",
            "Name": "清金門鎮總兵署",
            "Category": "金門",
            "Island": "金城鎮",
            "Tour": "1-1.5小時",
            "Description": "清金門鎮總兵署所在地原為「叢青軒」，相傳是明萬曆辛丑年(西元1601)進士許獬讀書的地方，康熙年間，總兵陳龍考量舊金門城經歷明末多次兵禍，而后浦人丁興旺，於是將總兵署遷建於此，多次改建後成為現在規模，直到1915年金門設縣，總兵署仍為最高行政中心，歷經金門縣公署、金門縣政府、行政公署、金門防衛部…等等，現在則是金門經典的觀光景點，也是縣定古蹟之一〪",
            "Address": "金門縣金城鎮浯江街53號 ",
            "Tel": "+886-82-371717",
            "Hours": "09:00 - 22:00",
            "Figure": "fig/ISL-3211-Kinmen-02.jpg",
            "Link": "https://kinmen.travel/zh-tw/travel/attraction/393"
        },
        {
            "NO": "03",
            "Name": "莒光樓",
            "Category": "金門",
            "Island": "金城鎮",
            "Tour": "1小時",
            "Description": "面臨金城美景，背擁豐蓮山脈，初訪金門，必定要登上莒光樓遠眺金門風光！莒光樓做為金門的精神象徵，以中國傳統建築的作法，將傳統城樓放在現代建築的基座之上，締造一項獨特建築美感〪這座建築建於西元1952年，是為了表彰在古寧頭戰役中的國軍官兵而建，也傳達「固若金湯，雄鎮海門」的戰地精神，成為金門征戰時期最具代表性的地標〪",
            "Address": " 金門縣金城鎮賢城路1號 ",
            "Tel": "+886-82-325632",
            "Hours": "08:00 - 22:00",
            "Figure": "fig/ISL-3211-Kinmen-03.jpg",
            "Link": "https://kinmen.travel/zh-tw/travel/attraction/389"
        },
        {
            "NO": "04",
            "Name": "山后民俗文化村",
            "Category": "金門",
            "Island": "金沙鎮",
            "Tour": "1-2小時",
            "Description": "來到金門，如果想看到完整的古厝聚落，一定不能錯過位在金沙鎮的山后民俗文化村！\r\n這群建築完成於清光緒26年(西元1900年)，為旅日僑領王國珍、王敬祥父子經商有成，號召族人闢建而成，佔地相當廣闊，包括16棟閩南傳統二進式建築，1棟學堂建築及1棟王氏宗祠共18棟，合稱為「十八間」。",
            "Address": "金門縣金沙鎮山后民俗文化村 ",
            "Tel": "+886-82-354441",
            "Hours": "08:00 - 17:00",
            "Figure": "fig/ISL-3211-Kinmen-04.jpg",
            "Link": "https://kinmen.travel/zh-tw/travel/attraction/517"
        },
        {
            "NO": "05",
            "Name": "馬山觀測所",
            "Category": "金門",
            "Island": "金沙鎮",
            "Tour": "0.5-1小時",
            "Description": "位於金沙鎮的馬山，距對岸的角嶼僅2,100公尺，退潮時更只有1,800公尺，是金廈兩岸最靠近的據點，在過去是觀測對岸海上活動的軍事要塞，有「天下第一哨」之稱。",
            "Address": "金門縣金沙鎮官澳東北角 ",
            "Tel": " +886-82-330086",
            "Hours": "08:30 - 17:00",
            "Figure": "fig/ISL-3211-Kinmen-05.jpg",
            "Link": "https://kinmen.travel/zh-tw/travel/attraction/546"
        },
        {
            "NO": "06",
            "Name": "太武山風景區",
            "Category": "金門",
            "Island": "金湖鎮",
            "Tour": "1.5 - 3 小時",
            "Description": "太武山位於金門島中央，雖然海拔高度僅有253公尺，但已是金門的最高山。太武山是八二三炮戰重要紀念地，除了可以登高望遠、健行外，山上更充滿人文景觀，像是：毋忘在莒、海印寺，都是金門特色景點。",
            "Address": "金門縣金湖鎮玉章路 ",
            "Tel": "+886-82-313100",
            "Hours": "05:00 - 18:00",
            "Figure": "fig/ISL-3211-Kinmen-06.jpg",
            "Link": "https://kinmen.travel/zh-tw/travel/attraction/499"
        }
    ]