[
        {
            "NO": "01",
            "Name": "貨櫃屋星巴克",
            "Category": "花蓮",
            "Area": "吉安鄉",
            "Description": "花蓮星巴克貨櫃屋超吸睛！花蓮貨櫃星巴克，是亞洲首間以貨櫃打造的星巴克，由名建築師隈研吾設計。\r\n總共有29個貨櫃，全源自世界各大碼頭，倒金字塔型四層建築實在太酷了，最夯熱門花蓮景點當之無愧啊～\r\n花蓮星巴克貨櫃屋附近景點，還有新天堂樂園，擁有世界最長室內溜滑梯是最大亮點",
            "Address": "花蓮縣吉安鄉南濱路一段 505 號",
            "Tel": "03-8420014",
            "Hours": "09:00–21:00",
            "Figure": "fig/ISL-3103-HualienGuide-01.jpeg",
            "Link": "https://www.starbucks.com.tw/stores/special/stores_special_hualienbay.jspx"
        },
        {
            "NO": "02",
            "Name": "吉安慶修院",
            "Category": "花蓮",
            "Area": "吉安鄉",
            "Description": "吉安慶修院，原名為真言宗吉野布教所，為臺灣現存最完整的日式寺院，日治時期日人在此設立移民村，成為移民的宗教信仰中心，藉此撫慰思鄉之情。木造建築經整修與人文精神重建後，散發濃濃的江戶風格，院內保留不動明王、八十八尊石佛、百度石等珍貴文物，並附設展售區，提供餐飲及浴衣體驗，讓旅客真切感受日式風情的禪意。",
            "Address": "花蓮縣吉安鄉吉安村中興路345-1號",
            "Tel": "03-853-5479",
            "Hours": "週二至週日08:30~17:00",
            "Figure": "fig/ISL-3103-HualienGuide-02.jpeg",
            "Link": "https://www.taiwan.net.tw/m1.aspx?sNo=0001124&id=A12-00292"
        },
        {
            "NO": "03",
            "Name": "鯉魚潭",
            "Category": "花蓮",
            "Area": "壽豐鄉",
            "Description": "鯉魚潭位於花蓮縣壽豐鄉，面積約104公頃，是花蓮縣境內最大的內陸湖泊，潭面呈南北長東西窄的橢圓形，面積因四季水量榮枯而互有消長，並因潭東的鯉魚山而得名。潭四周築有環湖公路，全程4公里，徒步1小時即可走完。",
            "Address": "花蓮縣壽豐鄉池南村環潭北路100號",
            "Tel": "03-864-1691",
            "Hours": "08:30~17:30",
            "Figure": "fig/ISL-3103-HualienGuide-03.jpeg",
            "Link": "https://www.taiwan.net.tw/m1.aspx?sNo=0001124&id=3"
        },
        {
            "NO": "05",
            "Name": "山姆叔叔咖啡館",
            "Category": "花蓮",
            "Area": "壽豐鄉",
            "Description": "位於花蓮台九線上樹湖村內的歐式造型建築。\r\n起初是三間平凡不過的老式建築，經過一系列的老屋重建及設計，改造出了如電影場景般的童話世界。",
            "Address": "花蓮縣壽豐鄉樹湖20號",
            "Tel": "03-865-6518",
            "Hours": "\t\r\n11:00–17:00",
            "Figure": "fig/ISL-3103-HualienGuide-05.jpeg",
            "Link": "https://www.facebook.com/mr.sam970/"
        },
        {
            "NO": "06",
            "Name": "七星潭",
            "Category": "花蓮",
            "Area": "新城鄉",
            "Description": "位在花蓮市區東北方，位於花蓮市新城鄉的北埔村，可取道美崙工業區，由花蓮師院（現為「國立東華大學美崙校區」）前指標前行即可到達。此地海灘呈一優美的弧形海灣，海水潔淨湛藍，黑石晶瑩剔透，在此可遠眺青山蒼鬱，公路綿延。\r\n\r\n七星潭富有詩意的名稱，據說是位於花蓮師範學院和花蓮機場一帶，早年有零星湖泊散佈，後來因建設需要而填實。現在一般稱七星潭，是指美崙工業區和花蓮機場以北的地區，有斷層形成的海峽與優美的弧形海灣，具有豐富的自然人文景觀。在七星潭，可以遠眺清水斷崖，夜間還可以欣賞新城和崇德地區的燈火，區內更有許多景點，提供休憩和知性之旅。",
            "Address": "花蓮縣新城鄉海岸路",
            "Tel": "03-822-1592",
            "Hours": "全日開放",
            "Figure": "fig/ISL-3103-HualienGuide-06.jpeg",
            "Link": "https://www.taiwan.net.tw/m1.aspx?sNo=0001124&id=9488"
        },
        {
            "NO": "07",
            "Name": "松園別館",
            "Category": "花蓮",
            "Area": "花蓮市",
            "Description": "松園別館舊名為花蓮港陸軍兵事部，建於西元1943年，當時為日軍在花蓮最高軍事指揮中心，又因園內松樹繁茂，環境十分清幽，且地勢居高臨下，同時可遠眺花蓮港及太平洋，成為當時高級軍官的休憩場所。園區至民國92年（西元2003年）開園至今，呈現另一種與市民共享的歷史風貌，規劃觀海平臺、木棧步道、藝文空間，並邀請藝術家進駐，定期辦理松園主題活動，成為具備生態、藝術、人文歷史的多元空間。",
            "Address": "花蓮縣花蓮市松園街65號",
            "Tel": "03-835-6510",
            "Hours": "週一至週日09:00~18:00、每月第二個星期二休館",
            "Figure": "fig/ISL-3103-HualienGuide-07.jpeg",
            "Link": "https://www.taiwan.net.tw/m1.aspx?sNo=0001124&id=A12-00294"
        },
        {
            "NO": "08",
            "Name": "太魯閣國家公園",
            "Category": "花蓮",
            "Area": "秀林鄉",
            "Description": "太魯閣國家公園成立於民國75年（西元1986年），橫跨花蓮、南投及臺中。\r\n\r\n太魯閣國家公園以雄偉壯麗、幾近垂直的大理岩峽谷景觀聞名。沿著立霧溪的峽谷風景線而行，觸目所及皆是壁立千仞的峭壁、斷崖、峽谷、連綿曲折的山洞隧道、大理岩層和溪流等風光。\r\n\r\n四百萬年前，菲律賓海洋板塊與歐亞大陸板塊碰撞而成臺灣，慢慢隆起的中央山脈表層岩層受到風化侵蝕作用而剝離，大理岩因而露出地表。這些大理岩受到立霧溪長期侵蝕下切作用與地殼不斷隆起上升，形成幾乎垂直的峽谷。公園內巨峰林立，從清水到南湖大山頂，落差達3,742公尺，造就了層次複雜的植物林相，並提供野生動物棲息活動的空間。",
            "Address": "花蓮縣秀林鄉富世村富世291號",
            "Tel": "03-862-1100~6",
            "Hours": "全日開放",
            "Figure": "fig/ISL-3103-HualienGuide-08.jpeg",
            "Link": "https://www.taiwan.net.tw/m1.aspx?sNo=0001124&id=R43"
        }
    ]