[
        {
            "NO": "01",
            "Name": "月世界地景公園",
            "Category": "高雄",
            "Area": "田寮區",
            "Description": "田寮「月世界」特殊景觀在地理學上稱為「惡地」，是由於地殼的「回春作用」，經年累月的經由雨水與河水強烈侵蝕，將泥沙堆積在泥岩上，地層變動後，泥沙更與泥岩混合再經由風化、沉積作用，形成今日地貌，僅適於耐旱、耐鹽的淺根植物（如：箭竹）、濱海植物生長。",
            "Address": "高雄市田寮區崇德里月球路36號",
            "Tel": "+886-7-6367036",
            "Hours": "10:00–17:00",
            "Figure": "fig/ISL-3105-KaohsiungGuide-01.jpeg",
            "Link": "https://khh.travel/zh-tw/attractions/detail/162"
        },
        {
            "NO": "02",
            "Name": "駁二藝術特區",
            "Category": "高雄",
            "Area": "鹽埕區",
            "Description": "「駁二」位於高雄港第三船渠內，原為一般的港口倉庫，2001年一群熱心熱血的藝文界人士成立了駁二藝術發展協會，催生推動駁二藝術特區作為南部人文藝術發展的基地，將駁二規劃成一個獨特的藝術開放空間，提供藝術家及學生一個創作發表的環境，已成為高雄最有人氣的文化景點。",
            "Address": "高雄市鹽埕區大勇路1號",
            "Tel": "+886-7-5214899",
            "Hours": "平日 10:00 – 18:00,  週末 10:00 – 21:00",
            "Figure": "fig/ISL-3105-KaohsiungGuide-02.jpeg",
            "Link": "https://khh.travel/zh-tw/attractions/detail/6"
        },
        {
            "NO": "03",
            "Name": "舊鐵橋天空步道",
            "Category": "高雄",
            "Area": "大樹區",
            "Description": "高屏舊鐵橋原名為下淡水溪鐵橋，由日本工程師飯田豐二監造，在1913年完工，為單軌鐵道，全長1526公尺的鐵橋，由24組鋼衍架及花崗岩紅磚橋墩組成，如長虹般橫跨在高屏溪上連結高屏二地的鐡路運輸，為臺灣民生及經濟發展寫下重要的一頁，也是當時亞洲最長的鐵橋。已走過百年歲月的舊鐵橋早已功成身退，但歷史、文化及建築上的意義卻值得永續留存，在鐵橋建造百年的2014年，市府特地以「不損及任何一根原始構件」為原則活化修復，打造長307公尺、寬8公尺的舊鐵橋天空步道，在枕木的空隙加裝鋼版、並搭建觀景平台供遊客休憩。登上空中步道，除了可以近距離體會古蹟與鐵橋建築之美，高屏溪畔青翠的濕地、秀麗的山川河流也在晨光夕照中展現多層次的壯濶瑰麗，飽覽自然風光、體驗歷史況味，心胸也為之寛濶開朗。",
            "Address": "高雄市大樹區竹寮里竹寮路109號\r\n",
            "Tel": "+886-7-6522292",
            "Hours": "全天候開放",
            "Figure": "fig/ISL-3105-KaohsiungGuide-03.jpeg",
            "Link": "https://khh.travel/zh-tw/attractions/detail/142"
        },
        {
            "NO": "04",
            "Name": "三和瓦窯",
            "Category": "高雄",
            "Area": "大樹區",
            "Description": "位於舊鐵橋園區旁的三和瓦窯，前身為「順安號煉瓦工廠」，歷經四個世代、二次更名的長久歲月，依然屹立不搖。在大樹區，磚窯產業巔峰時期曾達二十多家，沒落後現今雖僅存三和瓦窯，但經結合地方文史，並搭上文創風潮，開發各種DIY及瓦窯產品，深受遊客喜愛。",
            "Address": "高雄市大樹區竹寮路94號",
            "Tel": "+886-7-6512037",
            "Hours": "平日：08:30–17:00 假日：10:00–17:30",
            "Figure": "fig/ISL-3105-KaohsiungGuide-04.jpeg",
            "Link": "https://khh.travel/zh-tw/attractions/detail/179"
        },
        {
            "NO": "06",
            "Name": "新威森林公園",
            "Category": "高雄",
            "Area": "六龜區",
            "Description": "新威森林公園位於高雄市六龜區荖濃溪西岸的台地上，本為荖濃溪舊河床的一部份，昔日因土質優良而建為苗圃，居民稱為「坪頂」。 佔地30甲，以種植樹苗為主，培植的樣種多達200餘種，為全臺最大的苗圃之一， 其中以桃花心木、竹子、杉木最多，惟目前苗圃已不在。 但其中有一條桃花心木大道， 周邊綠樹成蔭，秋冬時，桃花心木的綠葉會呈現紅黃色，走在大道上，顯得格外的詩情畫意，是情侶散步及拍照的最佳選擇。",
            "Address": "高雄市六龜區新威里171號",
            "Tel": "+886-7-6871234",
            "Hours": "08:30–17:30",
            "Figure": "fig/ISL-3105-KaohsiungGuide-06.jpeg",
            "Link": "https://khh.travel/zh-tw/attractions/detail/221"
        },
        {
            "NO": "07",
            "Name": "原鄉緣紙傘文化村",
            "Category": "高雄",
            "Area": "美濃區",
            "Description": "美濃紙傘業曾有過一段輝煌歲月，全盛時期當地共有二十幾家紙傘廠，與菸葉、稻米同為美濃地區重要經濟收入，如今紙傘雖然不再是日常遮陽避雨的工具，但其藝術價值與裝飾性卻值得珍惜。「原鄉緣紙傘文化村」便是為了原鄉的傳承與文化，以油紙傘為幅奏，融合陶藝、文物、民俗、美食五大主軸，將美濃風情發揚光大。在此除可購買各式美麗的客家產品、瑰麗紙傘，更可參觀製作過程或親手DIY製做獨一無二的專屬工藝品，尋訪客家風情、體驗文物之美，原鄉緣紙傘文化村將不虛此行。",
            "Address": "高雄市美濃區中興路一段147號",
            "Tel": "+886-7-6810888",
            "Hours": "平日：09:00–17:30 假日：08:30–18:00",
            "Figure": "fig/ISL-3105-KaohsiungGuide-07.jpeg",
            "Link": "https://khh.travel/zh-tw/attractions/detail/78"
        },
        {
            "NO": "08",
            "Name": "佛陀紀念館",
            "Category": "高雄",
            "Area": "大樹區",
            "Description": "佛光山佛陀紀念館於2011年底落成，為國際博物館協會（ICOM）正式會員。佛館每年有千萬人次入館參觀，是旅行者必定參訪的勝地，全球最大旅遊網站TripAdvisor頒發「2014年旅行者之選大獎」佛館排行為台灣高雄景點第一名。\r\n     \r\n佛館最具特色莫過於全世界最大最高的坐佛–佛光大佛。園區還有三好兒童館、四給塔文化廣場、五和塔喜慶之家，以及雙閣樓抄經祈願、茶禪一味等。本館內主要供奉釋迦牟尼佛真身舍利，除殿堂外還有常設館、展覽館，以及可容納2000人的大覺堂，定期舉辦藝術表演、國際論壇等。",
            "Address": "高雄市大樹區統嶺路1號",
            "Tel": "+886-7-6563033",
            "Hours": "09:00 – 18:00",
            "Figure": "fig/ISL-3105-KaohsiungGuide-08.jpeg",
            "Link": "https://khh.travel/zh-tw/attractions/detail/198"
        },
        {
            "NO": "10",
            "Name": "旗山地景橋",
            "Category": "高雄",
            "Area": "旗山區",
            "Description": "旗山地景橋是一座供行人及自行車通行的景觀步道橋，橫跨楠梓仙溪，位於旗山橋上游兩兩相對，是由日治時期糖廠運送甘蔗的五分車軌道改建而成。在2009年莫拉克風災時，由於舊地景橋的橋墩過密、攔阻漂流木及洪水，被認為是造成旗山堤防潰堤、市區淹水的原因。2013年經過重建，加大橋墩間距、加固舊時結構，讓這座在地人共同記憶得以保留。地景橋全長536公尺，除了是旗山、旗尾地區莘莘學子安心上學通道外，也是遊客停駐遠眺山巒及河川美景的好地點，到了夜晚橋墩與橋面打亮燈光，與旗山橋造型各異又互相輝映，已成為旗山夜晚最美的景色。",
            "Address": "高雄市旗山區中華路上",
            "Tel": "+886-7-6616100",
            "Hours": "全天候開放",
            "Figure": "fig/ISL-3105-KaohsiungGuide-10.jpeg",
            "Link": "https://khh.travel/zh-tw/attractions/detail/111"
        },
        {
            "NO": "11",
            "Name": "旗山武德殿",
            "Category": "高雄",
            "Area": "旗山區",
            "Description": "日本在發動第2次世界大戰時，為倡行軍國主義，除了大力提倡日本立國精神「武士道精神」外，也在各地修建道場，供日裔軍警與青年修練柔道、劍道，宣揚武術。西元1934年興建的旗山武德殿，位於鼓山公園下，採傳統日本式寺殿式樣建築建造，不過由於日式廟堂多仿唐朝建築，故武德殿也具有相當濃厚的唐朝風格。",
            "Address": "高雄市旗山區華中街和中正路口",
            "Tel": "+886-7-6616100",
            "Hours": "09:00–18:00(週一公休)",
            "Figure": "fig/ISL-3105-KaohsiungGuide-11.jpeg",
            "Link": "https://khh.travel/zh-tw/attractions/detail/107"
        },
        {
            "NO": "12",
            "Name": "旗山孔子廟",
            "Category": "高雄",
            "Area": "旗山區",
            "Description": "旗山孔廟位於旗山鼓山公園內，佔地4.1公頃，是全臺面積最大的孔廟。廳殿樓閣，崢嶸軒峻，孔廟山門設有五開牌坊，莊嚴又開濶，建築遵循宋代建築樣式而建，黃色琉璃瓦、朱紅的樑柱與白玉欄柵，富麗宏偉。每年均規劃在此舉辦春季祭孔祈福活動，為學子求得昌明隆盛詩禮簪纓，迎來考試佳績。由於孔廟位於鼓山公園最高處，樹木山時蔥蔚洇潤，茂林修竹視野高遠，遍覽公園的美麗山水與風光明媚秀麗的旗山平原盡收眼底，平日也是民眾踏青及欣賞夜景的絕佳景點。",
            "Address": "高雄市旗山區中正路(鼓山公園內)",
            "Tel": "+886-7-6616859",
            "Hours": "\r\n09:00–17:00(週一公休)",
            "Figure": "fig/ISL-3105-KaohsiungGuide-12.jpeg",
            "Link": "https://khh.travel/zh-tw/attractions/detail/110"
        }
    ]